City_ID,City,Lat,Lng,Max Temp,Humidity,Cloudiness,Wind Speed,Country,Date
0,olonkinbyen,70.9221,-8.7187,17.76,90,100,15.17,SJ,1712884839
1,port mathurin,-19.6833,63.4167,80.13,76,67,10.67,MU,1712884839
2,grytviken,-54.2811,-36.5092,28.36,67,2,10.36,GS,1712884839
3,iqaluit,63.7506,-68.5145,22.73,79,75,12.66,CA,1712884839
4,west island,-12.1568,96.8225,82.38,78,40,8.05,CC,1712884839
5,santa cruz,-17.8,-63.1667,74.66,83,75,5.75,BO,1712884840
6,mindelo,16.8901,-24.9804,71.15,68,20,13.8,CV,1712884840
7,saipan,15.1355,145.701,88.5,62,40,17.27,MP,1712884840
8,tura,25.5198,90.2201,80.33,37,0,2.46,IN,1712884840
9,thompson,55.7435,-97.8558,33.96,75,100,6.91,CA,1712884840
10,papatowai,-46.5619,169.4708,47.73,71,100,4.76,NZ,1712884841
11,vilyuchinsk,52.9306,158.4028,44.87,92,18,5.64,RU,1712884841
12,barra de santo antonio,-9.4047,-35.5072,79.88,81,4,6.29,BR,1712884841
13,albany,42.6001,-73.9662,59.59,79,100,7.0,US,1712884653
14,stanley,54.868,-1.6985,55.71,86,75,11.5,GB,1712884841
15,hawaiian paradise park,19.5933,-154.9731,72.91,95,100,6.91,US,1712884841
16,boa vista,2.8197,-60.6733,89.58,51,0,8.05,BR,1712884842
17,port-aux-francais,-49.35,70.2167,42.44,85,100,7.7,TF,1712884842
18,puerto ayora,-0.7393,-90.3518,78.55,97,98,7.0,EC,1712884842
19,invercargill,-46.4,168.35,49.01,82,100,5.01,NZ,1712884842
20,hanceville,34.0607,-86.7675,55.65,96,63,8.1,US,1712884842
21,gurupi,-11.7292,-49.0686,75.58,79,75,5.32,BR,1712884843
22,kalkaman,51.9525,76.0211,30.56,88,100,4.88,KZ,1712884843
23,waitangi,-43.9535,-176.5597,64.81,91,100,11.01,NZ,1712884843
24,yarmouth,41.7057,-70.2286,57.67,95,100,9.22,US,1712884843
25,adamstown,-25.066,-130.1015,70.95,54,10,12.19,PN,1712884843
26,whitehorse,60.7161,-135.0538,45.37,28,75,17.27,CA,1712884844
27,hithadhoo,-0.6,73.0833,83.5,73,87,4.16,MV,1712884844
28,urengoy,65.9667,78.3667,-2.06,87,100,18.21,RU,1712884844
29,kzyltu,53.6364,72.3414,30.07,87,30,2.01,KZ,1712884844
30,qaqortoq,60.7167,-46.0333,18.18,89,14,4.85,GL,1712884844
31,ust-tsilma,65.441,52.1498,34.61,99,100,17.0,RU,1712884844
32,edinburgh of the seven seas,-37.0676,-12.3116,65.5,92,9,17.18,SH,1712884845
33,arraial do cabo,-22.9661,-42.0278,77.56,85,7,3.24,BR,1712884845
34,bayanhongor,46.7167,100.1167,32.95,53,61,5.44,MN,1712884845
35,wewak,-3.5534,143.6268,84.85,73,6,1.7,PG,1712884846
36,bilibino,68.0546,166.4372,15.53,75,56,4.47,RU,1712884846
37,hlybokaye,55.1382,27.6879,50.61,69,87,15.86,BY,1712884846
38,erfurt,50.9833,11.0333,53.38,69,0,5.75,DE,1712884846
39,olyokminsk,60.3736,120.4264,19.67,69,100,7.05,RU,1712884846
40,fale old settlement,-9.3852,-171.2468,85.98,72,13,8.86,TK,1712884847
41,talnakh,69.4865,88.3972,-15.45,97,93,8.84,RU,1712884847
42,okhotsk,59.3833,143.3,28.44,92,60,2.35,RU,1712884847
43,st. john's,47.5649,-52.7093,34.97,82,0,16.11,CA,1712884847
44,san luis de la loma,17.2706,-100.8939,78.35,75,0,1.77,MX,1712884847
45,eyl,7.9803,49.8164,82.13,82,100,5.39,SO,1712884847
46,burutu,5.3509,5.5076,81.19,83,96,8.23,NG,1712884848
47,mocimboa,-11.3167,40.35,78.33,91,100,5.5,MZ,1712884848
48,pacific grove,36.6177,-121.9166,70.65,75,0,6.91,US,1712884672
49,puerto natales,-51.7236,-72.4875,36.95,91,24,4.97,CL,1712884848
50,kayangel,8.0823,134.7173,82.56,76,98,9.42,PW,1712884848
51,isafjordur,66.0755,-23.124,26.22,94,100,27.67,IS,1712884849
52,howrah,22.5892,88.3103,75.2,78,40,6.91,IN,1712884849
53,berdigestyakh,62.0989,126.6992,11.07,87,100,11.34,RU,1712884849
54,san patricio,28.017,-97.5169,75.15,36,3,8.99,US,1712884849
55,ribeira grande,38.5167,-28.7,60.78,94,1,3.0,PT,1712884850
56,tazovsky,67.4667,78.7,-3.69,89,100,18.5,RU,1712884850
57,cabedelo,-6.9811,-34.8339,81.27,81,100,8.81,BR,1712884850
58,afaahiti,-17.75,-149.2833,84.07,86,100,18.16,PF,1712884850
59,avarua,-21.2078,-159.775,84.25,84,75,18.41,CK,1712884850
60,kita,13.0349,-9.4895,88.39,31,92,3.67,ML,1712884850
61,mount gambier,-37.8333,140.7667,58.89,56,100,5.12,AU,1712884851
62,kenai,60.5544,-151.2583,39.29,93,100,3.44,US,1712884851
63,bredasdorp,-34.5322,20.0403,55.15,76,20,7.34,ZA,1712884851
64,wailua homesteads,22.0669,-159.378,74.19,84,75,9.22,US,1712884851
65,naze,28.3667,129.4833,70.72,86,95,9.78,JP,1712884851
66,petropavlovsk-kamchatsky,53.0452,158.6483,43.39,26,0,4.47,RU,1712884852
67,keflavik,64.0049,-22.5624,39.11,93,100,11.5,IS,1712884852
68,ust-nera,64.5667,143.2,24.53,86,63,6.02,RU,1712884852
69,saint-francois,46.4154,3.9054,44.65,94,0,3.44,FR,1712884852
70,blackmans bay,-43.0167,147.3167,60.93,75,98,7.74,AU,1712884852
71,nova sintra,14.8667,-24.7167,72.32,78,9,14.36,CV,1712884853
72,yellowknife,62.456,-114.3525,37.92,60,20,13.8,CA,1712884853
73,cockburn town,21.4612,-71.1419,77.65,83,9,20.98,TC,1712884853
74,portland,45.5234,-122.6762,59.77,60,100,9.22,US,1712884853
75,chibougamau,49.9168,-74.3659,40.62,93,100,8.05,CA,1712884853
76,yuzhno-kurilsk,44.0306,145.8556,40.37,76,100,10.09,RU,1712884854
77,brokopondo,4.75,-55.1667,77.7,87,99,8.99,SR,1712884854
78,angaur state,6.906,134.13,82.51,76,100,12.21,PW,1712884854
79,bethel,41.3712,-73.414,60.89,89,100,8.05,US,1712884854
80,xai-xai,-25.0519,33.6442,70.77,67,99,13.56,MZ,1712884854
81,ilulissat,69.2167,-51.1,19.42,93,100,0.0,GL,1712884855
82,egilsstadir,65.2653,-14.3948,33.71,93,100,11.5,IS,1712884855
83,partenit,44.578,34.3446,58.77,67,15,9.42,UA,1712884855
84,kaynarca,41.0308,30.3075,44.78,92,6,1.45,TR,1712884855
85,hermanus,-34.4187,19.2345,54.81,76,89,14.99,ZA,1712884856
86,inirida,3.8653,-67.9239,80.38,79,92,1.07,CO,1712884856
87,vadso,70.0744,29.7487,32.88,80,100,14.97,NO,1712884856
88,malanje,-9.5402,16.341,66.83,98,99,3.27,AO,1712884856
89,port elizabeth,-33.918,25.5701,58.1,77,0,10.36,ZA,1712884856
90,suleja,9.1758,7.1808,85.19,30,100,4.65,NG,1712884857
91,fisterra,42.9049,-9.2629,56.75,76,35,4.7,ES,1712884857
92,lihue,21.9789,-159.3672,74.79,80,75,9.22,US,1712884857
93,jamestown,42.097,-79.2353,62.19,99,100,11.99,US,1712884857
94,leh,34.1667,77.5833,10.2,84,70,4.03,IN,1712884857
95,danville,36.586,-79.395,70.45,83,75,10.36,US,1712884566
96,anadyr,64.75,177.4833,14.5,72,0,20.13,RU,1712884858
97,mil'kovo,55.6078,37.7956,49.05,66,100,8.57,RU,1712884858
98,ilhabela,-23.7781,-45.3581,75.33,89,100,1.57,BR,1712884858
99,longyearbyen,78.2186,15.6401,4.84,66,0,2.3,SJ,1712884858
100,noceto,44.8114,10.1713,60.71,78,54,4.61,IT,1712884858
101,nichinan,31.6,131.3667,64.08,83,100,8.63,JP,1712884859
102,laguna de perlas,12.3429,-83.6712,82.24,80,93,11.39,NI,1712884859
103,axim,4.8699,-2.2405,79.83,83,96,2.35,GH,1712884859
104,hami,42.8,93.45,61.0,30,55,7.09,CN,1712884859
105,sao joao do paraiso,-15.3136,-42.0144,70.74,86,100,8.43,BR,1712884859
106,presidente epitacio,-21.7633,-52.1156,78.84,67,100,5.91,BR,1712884860
107,aconibe,1.2968,10.9369,70.27,99,100,1.86,GQ,1712884860
108,ilha de mocambique,-15.0342,40.7358,80.67,83,87,13.82,MZ,1712884860
109,punta arenas,-53.15,-70.9167,46.51,71,40,35.68,CL,1712884860
110,flen,59.0583,16.5878,48.29,84,14,11.68,SE,1712884860
111,whangarei,-35.7317,174.3239,78.22,46,31,4.97,NZ,1712884860
112,igarka,67.4667,86.5833,-13.99,99,83,7.0,RU,1712884861
113,martapura,-3.4167,114.85,82.13,80,98,2.55,ID,1712884861
114,klyuchi,52.2667,79.1667,27.01,73,4,5.93,RU,1712884861
115,ancud,-41.8697,-73.8203,48.06,73,0,5.37,CL,1712884862
116,kiruna,67.8557,20.2251,23.92,93,20,4.61,SE,1712884862
117,frontera,26.9333,-101.45,87.55,16,40,6.91,MX,1712884862
118,margaret river,-33.95,115.0667,63.36,63,6,12.73,AU,1712884862
119,soure,-0.7167,-48.5233,78.39,93,100,7.29,BR,1712884862
120,saynshand,44.8824,110.1163,54.88,32,99,6.31,MN,1712884863
121,akjoujt,19.6969,-14.4164,83.7,15,0,9.24,MR,1712884863
122,luganville,-15.5333,167.1667,86.27,69,23,7.05,VU,1712884863
123,santo angelo,-28.2992,-54.2631,65.03,94,99,14.05,BR,1712884863
124,queenstown,-31.8976,26.8753,38.93,88,0,1.43,ZA,1712884863
125,carnarvon,-24.8667,113.6333,73.83,52,0,14.54,AU,1712884864
126,ushuaia,-54.8,-68.3,46.06,71,0,28.77,AR,1712884861
127,ta`u,-14.2336,-169.5144,83.71,79,14,10.02,AS,1712884864
128,sabha,27.0377,14.4283,71.42,16,1,21.79,LY,1712884864
129,port moresby,-9.4431,147.1797,89.02,62,40,12.66,PG,1712884864
130,nikolayevsk-on-amure,53.1406,140.73,45.21,64,9,3.0,RU,1712884865
131,ingeniero guillermo n. juarez,-23.9,-61.85,59.04,97,100,10.98,AR,1712884865
132,horta,38.5333,-28.6333,60.03,94,0,3.0,PT,1712884865
133,upper grand lagoon,30.1633,-85.7408,63.09,71,0,8.99,US,1712884865
134,kasongo,-4.45,26.6667,70.5,96,98,2.28,CD,1712884865
135,emboscada,-25.15,-57.35,77.61,96,20,4.61,PY,1712884866
136,anna regina,7.2644,-58.5077,80.56,78,12,9.42,GY,1712884866
137,motueka,-41.1333,173.0167,67.1,96,59,10.67,NZ,1712884866
138,acarau,-2.8856,-40.12,79.23,87,100,6.06,BR,1712884663
139,aanekoski,62.6946,25.818,37.67,100,100,7.54,FI,1712884866
140,aykhal,66.0,111.5,-5.19,88,15,5.57,RU,1712884866
141,caraballeda,10.6112,-66.8522,80.67,89,40,3.44,VE,1712884867
142,lakatoro,-16.0999,167.4164,85.89,70,20,6.29,VU,1712884867
143,ghormach,35.7306,63.7826,63.91,66,100,3.67,AF,1712884867
144,new norfolk,-42.7826,147.0587,62.1,82,100,2.66,AU,1712884867
145,eraan,9.0629,117.7016,87.42,58,27,3.4,PH,1712884867
146,prince george,53.9166,-122.753,49.28,67,100,14.97,CA,1712884868
147,atafu village,-8.5421,-172.5159,85.66,74,98,9.31,TK,1712884868
148,richards bay,-28.783,32.0377,63.03,63,25,13.51,ZA,1712884868
149,chaiyaphum,15.75,102.0,89.8,41,10,4.63,TH,1712884868
150,barentu,15.1139,37.5928,74.64,37,9,1.54,ER,1712884869
151,rongelap,11.1635,166.8941,80.22,77,100,19.69,MH,1712884869
152,tiksi,71.6872,128.8694,-10.23,90,11,16.15,RU,1712884869
153,hadibu,12.65,54.0333,80.58,78,15,5.23,YE,1712884869
154,kodiak,57.79,-152.4072,36.91,87,100,8.05,US,1712884869
155,saudarkrokur,65.7461,-19.6394,32.4,97,100,4.85,IS,1712884870
156,la sierpe,2.8518,-77.6155,78.64,87,69,2.06,CO,1712884870
157,north bend,43.4065,-124.2243,58.98,82,0,6.91,US,1712884870
158,nellore,14.4333,79.9667,80.89,77,13,5.61,IN,1712884870
159,lebu,-37.6167,-73.65,51.06,92,1,3.76,CL,1712884870
160,inhambane,-23.865,35.3833,70.0,75,97,12.39,MZ,1712884871
161,vallenar,-28.5708,-70.7581,64.9,64,100,1.72,CL,1712884871
162,badger,64.8,-147.5333,44.85,47,75,13.8,US,1712884871
163,bugana,7.9992,7.5836,84.72,67,100,8.55,NG,1712884871
164,hotan,37.0997,79.9269,62.26,18,42,8.57,CN,1712884872
165,woodward,36.4337,-99.3904,63.63,27,0,5.75,US,1712884872
166,kavaratti,10.5669,72.642,84.09,70,18,5.77,IN,1712884872
167,constantia,44.1833,28.65,61.7,65,45,6.38,RO,1712884872
168,strezhevoy,60.7333,77.5889,1.96,89,89,8.01,RU,1712884872
169,tosontsengel,48.7567,98.2839,36.72,52,24,10.02,MN,1712884873
170,nuuk,64.1835,-51.7216,27.21,86,40,6.91,GL,1712884873
171,vorgashor,67.5833,63.95,14.81,87,100,17.94,RU,1712884873
172,coyhaique,-45.5752,-72.0662,41.61,81,0,0.0,CL,1712884873
173,laascaanood,8.4774,47.3597,73.69,81,85,4.83,SO,1712884873
174,guatrache,-37.6678,-63.5302,49.48,72,100,7.78,AR,1712884874
175,la passe,45.5549,-0.8967,51.98,93,11,7.05,FR,1712884874
176,enewetak,11.3474,162.3373,80.29,79,79,19.71,MH,1712884874
177,griffith,41.5284,-87.4237,56.1,76,100,11.5,US,1712884874
178,salekhard,66.53,66.6019,20.39,95,100,17.0,RU,1712884875
179,soto la marina,23.7667,-98.2167,73.45,31,76,9.28,MX,1712884875
180,jurilovca,44.7667,28.8667,61.03,78,0,12.28,RO,1712884875
181,tolanaro,-25.0319,46.9987,73.47,88,40,11.5,MG,1712884875
182,cedeira,43.6797,-8.0209,61.05,92,10,2.1,ES,1712884875
183,kill devil hills,36.0307,-75.676,68.0,93,100,37.98,US,1712884876
184,tazacorte,28.629,-17.9293,76.17,20,100,9.22,ES,1712884876
185,krong kep,10.4833,104.3167,85.96,68,100,8.68,KH,1712884876
186,al mayadin,35.0209,40.4535,66.51,47,100,5.28,SY,1712884876
187,fortuna,40.5982,-124.1573,55.65,79,100,11.5,US,1712884876
188,roma,43.2128,-75.4557,62.87,85,100,13.8,US,1712884877
189,hasaki,35.7333,140.8333,63.28,84,100,9.64,JP,1712884877
190,rio grande,-32.035,-52.0986,68.36,60,100,14.67,BR,1712884877
191,kingston,17.997,-76.7936,83.35,74,20,13.8,JM,1712884877
192,chake chake,-5.2459,39.7666,81.32,85,99,8.01,TZ,1712884877
193,uturoa,-16.7333,-151.4333,83.43,80,23,17.69,PF,1712884878
194,puerto carreno,6.189,-67.4859,93.63,36,100,3.06,CO,1712884680
195,mesolongi,38.3702,21.4295,55.49,55,100,7.43,GR,1712884878
196,shirbin,31.1954,31.5213,55.67,91,0,3.94,EG,1712884878
197,sittwe,20.15,92.9,79.2,57,0,5.77,MM,1712884878
198,polyarnyy,69.1989,33.4478,30.36,88,100,23.73,RU,1712884878
199,bikenibeu village,1.3673,173.1241,87.76,74,20,5.75,KI,1712884879
200,geraldton,-28.7667,114.6,73.81,53,6,17.27,AU,1712884879
201,dzilam gonzalez,21.2833,-88.9333,73.11,66,100,7.05,MX,1712884879
202,kasongo-lunda,-6.4667,16.8167,72.43,98,100,0.87,CD,1712884879
203,bulawayo,-20.15,28.5833,57.58,84,100,15.03,ZW,1712884879
204,tommot,58.9564,126.2925,33.93,99,100,9.33,RU,1712884880
205,nar'yan-mar,67.6713,53.087,35.11,100,100,17.0,RU,1712884880
206,namibe,-15.1961,12.1522,72.48,74,7,6.78,AO,1712884880
207,saqqez,36.2499,46.2735,42.15,91,100,5.88,IR,1712884880
208,port augusta,-32.5,137.7667,65.46,50,60,4.56,AU,1712884881
209,necochea,-38.5473,-58.7368,50.38,70,100,6.58,AR,1712884701
210,pochinki,54.6988,44.8668,55.83,81,25,6.69,RU,1712884881
211,arauquita,7.0292,-71.4281,83.03,47,5,1.92,CO,1712884881
212,praia da vitoria,38.7333,-27.0667,61.75,100,40,6.71,PT,1712884701
213,huarmey,-10.0681,-78.1522,73.96,80,40,8.5,PE,1712884674
214,college,64.8569,-147.8028,44.92,48,75,13.8,US,1712884882
215,tyukalinsk,55.8732,72.1967,28.09,89,95,10.33,RU,1712884882
216,yeovil,50.9416,-2.6321,51.53,89,53,8.05,GB,1712884883
217,kayyerkan,69.3786,87.7439,-15.77,96,39,6.82,RU,1712884883
218,anar darah,32.7587,61.654,66.47,60,60,3.51,AF,1712884883
219,magadan,59.5667,150.8,24.53,90,19,3.02,RU,1712884670
220,victoria falls,-17.9235,25.843,70.0,65,100,10.33,ZW,1712884884
221,fort st. john,56.2499,-120.8529,49.89,37,100,8.05,CA,1712884884
222,ixtapa,20.7,-105.2,73.22,78,75,5.75,MX,1712884884
223,georgetown,5.4112,100.3354,85.93,70,20,8.05,MY,1712884867
224,carauari,-4.8828,-66.8958,75.88,98,100,1.86,BR,1712884885
225,baki,-7.6128,110.7839,79.59,86,84,4.97,ID,1712884885
226,minas de marcona,-15.2119,-75.1103,63.05,79,100,10.63,PE,1712884885
227,corner brook,48.9667,-57.9484,33.96,80,6,4.83,CA,1712884885
228,harper,4.375,-7.7169,79.09,88,100,2.98,LR,1712884885
229,hamilton,39.1834,-84.5333,53.94,89,100,23.02,US,1712884830
230,amble,55.3333,-1.5833,56.16,94,100,14.97,GB,1712884886
231,susuman,62.7833,148.1667,16.99,81,77,4.0,RU,1712884886
232,fort bragg,35.139,-79.006,71.82,89,100,13.8,US,1712884886
233,las palmas,28.4204,-14.0131,66.99,64,0,11.5,ES,1712884887
234,lompoc,34.6391,-120.4579,78.01,69,0,6.91,US,1712884887
235,haiku-pauwela,20.9219,-156.3051,78.26,71,20,12.66,US,1712884657
236,antalaha,-14.9003,50.2788,76.26,92,49,3.71,MG,1712884887
237,sinabang,2.4803,96.3801,81.84,81,98,3.22,ID,1712884699
238,landeck,47.1301,10.5636,47.98,86,68,3.0,AT,1712884888
239,ialibu,-6.2821,143.9935,62.47,93,100,1.99,PG,1712884888
240,al fujairah city,25.1164,56.3414,87.93,30,0,3.44,AE,1712884888
241,hanzhong,33.0728,107.0303,65.91,69,0,2.21,CN,1712884888
242,wajir,1.7471,40.0573,79.39,79,75,9.33,KE,1712884889
243,luau,-10.7073,22.2247,65.41,98,100,3.83,AO,1712884889
244,mount isa,-20.7333,139.5,76.77,29,0,12.66,AU,1712884648
245,hobbs,32.7026,-103.136,73.99,15,0,9.22,US,1712884694
246,kapuskasing,49.4169,-82.4331,53.69,50,100,6.91,CA,1712884890
247,khandyga,62.6667,135.6,31.73,91,100,9.69,RU,1712884890
248,touros,-5.1989,-35.4608,79.57,87,99,6.76,BR,1712884679
249,safford,32.834,-109.7076,83.32,10,0,5.75,US,1712884890
250,miyazu,35.5333,135.1833,66.4,58,0,0.92,JP,1712884890
251,suoyarvi,62.0833,32.35,34.02,99,100,5.06,RU,1712884891
252,midvagur,62.0511,-7.1939,47.23,93,100,14.97,FO,1712884891
253,dunedin,-45.8742,170.5036,48.79,91,100,3.0,NZ,1712884676
254,laguna,38.421,-121.4238,84.11,45,0,8.05,US,1712884891
255,taiynsha,53.8478,69.7639,33.46,84,100,10.22,KZ,1712884892
256,matoury,4.8483,-52.3317,78.76,94,75,2.3,GF,1712884892
257,binhe,32.6883,112.8275,65.17,74,0,5.91,CN,1712884892
258,bubaque,11.2833,-15.8333,75.4,71,3,22.1,GW,1712884698
259,jabat,7.75,168.9751,81.91,79,100,19.33,MH,1712884877
260,luino,46.0019,8.7451,58.21,89,0,1.14,IT,1712884893
261,sovetskoye,52.2861,85.4131,33.69,82,100,9.13,RU,1712884893
262,lamu,-2.2717,40.902,82.11,86,66,7.58,KE,1712884893
263,barra do corda,-5.5,-45.25,75.38,96,3,3.33,BR,1712884893
264,dadukou,26.5479,101.7054,68.47,35,38,2.75,CN,1712884894
265,camayenne,9.535,-13.6878,78.89,78,91,4.61,GN,1712884894
266,codrington,-38.2667,141.9667,61.03,53,99,7.74,AU,1712884894
267,annau,37.8876,58.516,58.5,77,100,6.91,TM,1712884894
268,mvomero,-6.25,38.6667,74.7,98,22,3.87,TZ,1712884894
269,lerwick,60.1545,-1.1494,48.2,85,100,21.18,GB,1712884637
270,jiexiu,37.0244,111.9125,68.7,35,0,7.87,CN,1712884895
271,lata,40.1629,-8.3327,60.93,81,100,3.96,PT,1712884895
272,esens,53.6487,7.6127,54.16,95,100,10.36,DE,1712884895
273,tevriz,57.509,72.4042,26.22,84,100,9.93,RU,1712884895
274,port alfred,-33.5906,26.891,57.18,82,100,5.99,ZA,1712884896
275,funafuti,-8.5243,179.1942,89.6,74,75,0.0,TV,1712884896
276,dokkum,53.3222,5.997,55.99,96,100,12.66,NL,1712884864
277,ozalp,38.6548,43.993,35.55,89,100,5.28,TR,1712884896
278,vizinga,61.0749,50.1031,39.94,83,80,10.45,RU,1712884897
279,newman,37.3138,-121.0208,84.43,51,1,1.99,US,1712884897
280,altinekin,38.3078,32.8686,48.76,74,62,6.13,TR,1712884897
281,kirishi,59.4471,32.0205,45.03,75,100,13.85,RU,1712884897
282,liwale,-9.7667,37.9333,70.88,98,100,2.06,TZ,1712884897
283,valley center,33.2184,-117.0342,78.49,63,0,3.0,US,1712884898
284,och'amch'ire,42.7123,41.4686,52.68,93,18,1.68,GE,1712884898
285,tralee,52.2704,-9.7026,52.47,98,100,5.23,IE,1712884898
286,robertsport,6.7533,-11.3686,80.67,85,100,3.71,LR,1712884898
287,villaguay,-31.8653,-59.0269,60.62,70,100,13.29,AR,1712884899
288,cabo san lucas,22.8909,-109.9124,77.31,52,75,6.91,MX,1712884642
289,arno,60.1167,18.6333,43.79,82,1,14.7,SE,1712884899
290,chonchi,-42.6128,-73.8092,46.11,75,0,1.21,CL,1712884899
291,westport,41.1415,-73.3579,61.63,91,100,10.36,US,1712884899
292,lichinga,-13.3128,35.2406,62.89,97,100,8.75,MZ,1712884900
293,shache,38.4167,77.2406,55.8,23,100,8.88,CN,1712884900
294,sulya,12.5667,75.3833,74.8,94,48,1.23,IN,1712884900
295,mount pearl,47.5166,-52.7813,34.14,82,0,16.11,CA,1712884900
296,talakan,50.3167,130.3667,49.44,63,100,12.06,RU,1712884901
297,beyneu,45.3167,55.2,47.77,60,5,13.38,KZ,1712884706
298,ulladulla,-35.35,150.4667,67.77,60,1,5.99,AU,1712884640
299,iskateley,67.6803,53.1512,35.02,100,100,17.0,RU,1712884666
300,dudinka,69.4058,86.1778,-21.32,99,52,8.01,RU,1712884669
301,volchansk,59.9378,60.081,38.5,86,71,10.25,RU,1712884902
302,bhamo,24.2667,97.2333,80.96,32,96,1.34,MM,1712884643
303,el dorado hills,38.6857,-121.0822,79.97,45,0,1.99,US,1712884781
304,yel'nya,54.5786,33.1837,46.63,66,100,9.6,RU,1712884902
305,phalodi,27.1333,72.3667,78.44,36,5,10.47,IN,1712884903
306,sinop,41.7711,34.8709,48.69,93,96,2.71,TR,1712884903
307,aswan,24.0934,32.907,70.21,31,100,9.84,EG,1712884903
308,kalmunai,7.4167,81.8167,80.55,84,100,3.58,LK,1712884903
309,riachao das neves,-11.7461,-44.91,79.29,65,90,2.46,BR,1712884904
310,malynivka,49.8167,36.7333,62.51,76,100,7.76,UA,1712884904
311,san martin,-33.081,-68.4681,50.54,73,46,11.16,AR,1712884717
312,mazatan,14.8667,-92.45,86.07,74,40,6.91,MX,1712884904
313,isla del bosque,22.7333,-105.85,71.13,68,100,3.44,MX,1712884904
314,sola,-13.8833,167.55,83.07,79,56,10.31,VU,1712884905
315,springbok,-29.6643,17.8865,62.29,30,10,18.86,ZA,1712884905
316,shimoda,34.6667,138.95,57.56,84,100,14.29,JP,1712884905
317,colonia,50.9333,6.95,58.82,82,100,1.14,DE,1712884686
318,vanimo,-2.6741,141.3028,83.1,83,76,2.86,PG,1712884906
319,port saint john's,-31.6229,29.5448,59.58,63,4,13.15,ZA,1712884906
320,razdol'noye,45.7708,33.4878,56.86,64,0,4.14,UA,1712884906
321,sao joao da barra,-21.6403,-41.0511,77.59,83,8,4.36,BR,1712884907
322,port-vila,-17.7338,168.3219,87.4,74,75,9.22,VU,1712884907
323,cannonvale,-20.2833,148.7,74.59,76,99,15.14,AU,1712884907
324,gogrial,8.5332,28.1004,82.89,16,100,4.52,SS,1712884907
325,sal rei,16.1833,-22.9167,70.65,82,0,11.88,CV,1712884907
326,senanga,-16.1167,23.2667,67.68,83,28,2.89,ZM,1712884908
327,kuandian,40.7286,124.7847,56.01,60,20,11.27,CN,1712884908
328,flying fish cove,-10.4217,105.6791,82.08,83,100,10.36,CX,1712884854
329,guerrero negro,27.9769,-114.0611,66.54,62,100,13.78,MX,1712884908
330,argo,37.6333,22.7333,63.28,45,71,8.77,GR,1712884696
331,sitka,57.0531,-135.33,46.29,61,20,14.97,US,1712884713
332,vyyezdnoye,55.3815,43.7864,46.18,80,73,6.82,RU,1712884909
333,miguel pereira,-22.4539,-43.4689,69.73,99,58,2.19,BR,1712884910
334,nagqu,31.5,92.0,28.65,49,100,7.74,CN,1712884689
335,silver springs,29.1044,-82.0206,71.94,78,0,4.0,US,1712884910
336,ambato boeny,-16.4667,46.7167,78.39,81,85,0.16,MG,1712884910
337,utrik,11.2278,169.8474,79.83,73,100,19.91,MH,1712884877
338,koksijde,51.1117,2.6852,55.45,94,75,10.36,BE,1712884911
339,la'ie,21.6477,-157.9253,79.99,82,100,11.99,US,1712884911
340,harnosand,62.6323,17.9379,33.82,93,100,7.31,SE,1712884911
341,pamanukan,-6.2842,107.8106,77.74,93,100,4.21,ID,1712884911
342,rapar,23.5667,70.6333,75.97,74,0,3.38,IN,1712884912
343,port lincoln,-34.7333,135.8667,60.35,57,40,6.22,AU,1712884912
344,esil,51.9556,66.4042,33.48,78,97,10.47,KZ,1712884912
345,kailua-kona,19.6406,-155.9956,82.6,85,100,8.05,US,1712884912
346,posto fiscal rolim de moura,-13.0833,-62.2667,75.81,98,100,2.44,BR,1712884683
347,ad dabbah,18.05,30.95,72.66,19,5,11.41,SD,1712884913
348,pontes e lacerda,-15.2261,-59.3353,75.43,95,100,2.28,BR,1712884697
349,happy valley-goose bay,53.3168,-60.3315,46.71,39,75,13.8,CA,1712884913
350,swakopmund,-22.6833,14.5333,58.05,82,72,3.62,NA,1712884913
351,la asuncion,11.0333,-63.8628,78.89,82,0,14.03,VE,1712884913
352,mejit,10.2753,170.8646,80.06,78,100,21.07,MH,1712884664
353,khovd,48.0056,91.6419,41.56,48,100,1.99,MN,1712884914
354,kingsland,30.8,-81.6898,71.55,69,0,11.92,US,1712884914
355,hualien city,23.9769,121.6044,81.5,71,5,5.44,TW,1712884915
356,puerto el triunfo,13.2833,-88.55,84.34,77,38,6.8,SV,1712884915
357,fonte boa,-2.4959,-66.2662,76.53,97,100,2.46,BR,1712884915
358,manokwari,-0.8667,134.0833,83.86,69,99,7.56,ID,1712884684
359,shakiso,5.75,38.9167,59.38,98,100,2.91,ET,1712884915
360,labytnangi,66.6572,66.4183,20.37,95,100,9.91,RU,1712884673
361,key west,24.5557,-81.7826,82.4,85,75,12.66,US,1712884916
362,nieuw amsterdam,5.8833,-55.0833,77.16,88,78,8.32,SR,1712884916
363,yunfu,22.9306,112.0373,79.27,77,53,2.26,CN,1712884916
364,remire-montjoly,4.9167,-52.2667,78.84,94,75,2.3,GF,1712884917
365,taoudenni,22.6783,-3.9836,80.53,11,0,14.36,ML,1712884917
366,betafo,-19.8333,46.85,60.22,93,100,2.91,MG,1712884917
367,jayapura,-2.5333,140.7,88.99,77,95,3.15,ID,1712884671
368,taltal,-25.4,-70.4833,64.6,81,9,3.58,CL,1712884820
369,lethem,3.3803,-59.7968,85.05,58,89,13.11,GY,1712884918
370,gusinoozyorsk,51.2833,106.5,40.89,83,100,3.58,RU,1712884918
371,shantou,23.3681,116.7148,75.06,78,15,2.24,CN,1712884918
372,fauske,67.2588,15.3918,39.24,93,100,6.49,NO,1712884919
373,lycksele,64.5954,18.6735,33.67,75,100,4.61,SE,1712884919
374,awjilah,29.1081,21.2869,65.41,28,0,6.38,LY,1712884653
375,sao vicente,-23.9631,-46.3919,77.27,59,100,1.01,BR,1712884892
376,puerto deseado,-47.7503,-65.8938,51.08,60,0,13.06,AR,1712884920
377,colonia menno,-22.3667,-59.8167,70.43,94,100,10.96,PY,1712884920
378,khanty-mansiysk,61.0042,69.0019,27.1,93,100,17.9,RU,1712884920
379,pitimbu,-7.4706,-34.8086,81.19,80,79,7.67,BR,1712884920
380,joao pinheiro,-17.7425,-46.1725,71.47,84,100,4.97,BR,1712884920
381,mongo,12.1844,18.693,86.16,9,100,7.47,TD,1712884921
382,prado,-17.3411,-39.2208,78.26,84,9,5.59,BR,1712884921
383,nema,57.5067,50.5011,40.78,91,8,8.5,RU,1712884921
384,tabuk,17.4189,121.4443,82.94,66,67,6.08,PH,1712884922
385,borzya,50.3833,116.5167,48.7,58,0,14.12,RU,1712884767
386,karratha,-20.7377,116.8463,83.55,60,3,7.65,AU,1712884680
387,umm kaddadah,13.6017,26.6876,74.62,13,6,13.06,SD,1712884694
388,champerico,14.3,-91.9167,84.79,73,12,6.4,GT,1712884922
389,dakhla,23.6848,-15.958,67.03,79,0,5.97,EH,1712884923
390,verkhnevilyuysk,63.4453,120.3167,4.42,80,18,5.57,RU,1712884923
391,datong,40.0936,113.2914,64.8,31,6,6.91,CN,1712884668
392,saint-leu,-21.15,55.2833,77.86,82,62,4.68,RE,1712884923
393,uitenhage,-33.7576,25.3971,57.42,78,2,6.82,ZA,1712884924
394,pangody,65.85,74.4859,6.12,91,100,26.49,RU,1712884647
395,crane,31.3974,-102.3501,75.0,17,0,12.06,US,1712884924
396,banjarmasin,-3.3244,114.591,83.26,76,100,3.83,ID,1712884924
397,holualoa,19.6228,-155.9522,80.87,80,100,8.05,US,1712884685
398,trairi,-3.2778,-39.2689,77.67,93,100,3.31,BR,1712884799
399,pucon,-39.2822,-71.9543,51.93,71,1,6.64,CL,1712884761
400,pokachi,61.7198,75.3683,10.71,86,100,17.98,RU,1712884925
401,hopelchen,19.7667,-89.85,78.73,37,81,7.47,MX,1712884926
402,verkhniy baskunchak,48.2256,46.7217,61.21,61,6,9.08,RU,1712884926
403,kapit,2.0167,112.9333,83.43,74,39,2.1,MY,1712884926
404,guajara mirim,-10.7828,-65.3394,73.8,98,99,4.23,BR,1712884926
405,khabarovsk,48.4808,135.0928,57.0,51,20,4.47,RU,1712884927
406,tenenkou,14.4572,-4.9169,91.18,23,47,5.64,ML,1712884927
407,parkersburg,39.2667,-81.5615,61.93,93,100,5.01,US,1712884925
408,teluk nibung,3.001,99.8164,80.08,81,99,4.54,ID,1712884927
409,al hufuf,25.3646,49.5653,70.14,43,0,5.75,SA,1712884928
410,bamboo flat,11.7,92.7167,86.09,84,20,2.3,IN,1712884928
411,gadzhiyevo,69.2551,33.3362,30.6,86,100,24.2,RU,1712884928
412,niamtougou,9.7681,1.1053,83.08,56,100,5.46,TG,1712884928
413,toliara,-23.35,43.6667,73.67,80,99,11.21,MG,1712884928
414,dzhangala,49.2167,50.3333,55.13,52,11,10.96,KZ,1712884929
415,faya-largeau,17.9257,19.1043,79.75,11,34,19.35,TD,1712884929
416,baciu,46.8,23.5167,54.43,82,0,5.75,RO,1712884929
417,puerto lempira,15.2667,-83.7667,80.38,78,24,10.47,HN,1712884716
418,mata-utu,-13.2816,-176.1745,85.46,76,35,11.27,WF,1712884911
419,steinkjer,64.193,11.3851,31.14,97,100,1.5,NO,1712884930
420,ghadamis,30.1337,9.5007,56.39,77,100,23.78,LY,1712884930
421,coquimbo,-29.9533,-71.3436,56.93,88,100,3.44,CL,1712884756
422,lusambo,-4.9667,23.45,72.99,92,94,1.61,CD,1712884930
423,katsuura,35.1333,140.3,58.73,88,100,12.64,JP,1712884651
424,san carlos,9.6612,-68.5827,85.41,50,4,4.41,VE,1712884931
425,frenstat pod radhostem,49.5484,18.2108,48.92,93,38,3.44,CZ,1712884931
426,shubarshi,48.5872,57.1869,44.02,71,99,6.44,KZ,1712884931
427,formosa do rio preto,-11.0483,-45.1931,77.56,67,37,1.61,BR,1712884931
428,arkhangel'sk,64.5401,40.5433,41.13,70,40,15.66,RU,1712884658
429,trincomalee,8.5711,81.2335,83.14,76,35,10.65,LK,1712884932
430,weno,7.4515,151.8468,85.95,84,100,10.36,FM,1712884669
431,nadi,-17.8,177.4167,87.8,70,20,11.5,FJ,1712884645
432,sanming,26.2486,117.6186,71.19,94,100,2.06,CN,1712884932
433,udachny,66.4167,112.4,-2.56,89,68,9.13,RU,1712884933
434,leua,48.2156,18.6071,54.5,82,11,3.13,SK,1712884933
435,guiuan,11.0333,125.7247,82.33,75,100,11.1,PH,1712884933
436,nemuro,43.3236,145.575,42.39,92,100,15.64,JP,1712884933
437,vodice,43.7608,15.7828,66.16,62,100,14.36,HR,1712884934
438,syktyvkar,61.6764,50.8099,42.91,56,20,18.01,RU,1712884934
439,kirensk,57.7853,108.1119,27.97,82,100,5.01,RU,1712884934
440,ad darb,17.7229,42.2526,82.58,69,33,7.72,SA,1712884934
441,neiafu,-18.65,-173.9833,83.08,78,40,10.36,TO,1712884934
442,ain taya,36.7933,3.2869,53.44,87,40,3.44,DZ,1712884935
443,kununurra,-15.7667,128.7333,84.18,37,6,10.36,AU,1712884935
444,fomboni,-12.28,43.7425,83.82,78,100,12.15,KM,1712884935
445,traverse city,44.7631,-85.6206,46.83,92,100,6.91,US,1712884935
446,alice springs,-23.7,133.8833,72.21,30,5,10.36,AU,1712884936
447,ontario,34.0633,-117.6509,85.68,39,0,13.8,US,1712884795
448,vila velha,-20.3297,-40.2925,78.94,87,75,4.61,BR,1712884890
449,kumasi,6.6885,-1.6244,75.13,92,100,2.15,GH,1712884936
450,pandan,14.0453,124.1694,82.42,77,49,8.97,PH,1712884684
451,narok,-1.0783,35.8601,58.78,95,57,2.8,KE,1712884937
452,christchurch,-43.5333,172.6333,55.33,89,100,18.41,NZ,1712884726
453,caleta de carquin,-11.0925,-77.6267,72.37,83,89,10.94,PE,1712884644
454,kodinsk,58.6881,99.1844,22.44,91,100,2.04,RU,1712884693
455,changling,44.2653,124.0005,61.92,51,100,26.35,CN,1712884938
456,denkanikota,12.5333,77.8,69.15,95,20,4.5,IN,1712884939
457,natal,-5.795,-35.2094,81.25,89,20,4.61,BR,1712884733
458,villa rica,33.7321,-84.9191,56.89,90,100,8.99,US,1712884939
459,yermentau,51.6214,73.1069,30.61,76,70,9.17,KZ,1712884939
460,uglegorsk,49.0833,142.0333,42.6,86,28,8.05,RU,1712884940
461,kapa'a,22.0752,-159.319,75.52,84,75,9.22,US,1712884940
462,aldinga beach,-35.2793,138.4604,64.26,54,6,5.5,AU,1712884769
463,maksatikha,57.797,35.8825,45.32,76,100,10.02,RU,1712884940
464,juegang,32.3174,121.1855,56.46,99,100,10.2,CN,1712884941
465,mkushi,-13.6202,29.3939,65.17,97,100,9.17,ZM,1712884941
466,point pedro,9.8167,80.2333,82.99,78,100,11.3,LK,1712884941
467,glenfield park,-35.1372,147.334,69.6,65,0,1.01,AU,1712884941
468,mamuju,-2.6748,118.8885,77.72,95,100,4.07,ID,1712884942
469,abilene,32.4487,-99.7331,70.02,40,0,8.05,US,1712884942
470,san antonio de pale,-1.4014,5.6325,82.18,77,100,5.19,GQ,1712884696
471,totness,5.8833,-56.3167,80.38,81,4,11.5,SR,1712884942
472,zouerate,22.7187,-12.4521,82.76,10,0,9.22,MR,1712884943
473,floro,61.5996,5.0328,48.16,81,75,19.57,NO,1712884943
474,amga,60.8953,131.9608,33.17,99,100,6.24,RU,1712884648
475,saint-pierre,-21.3393,55.4781,78.48,69,0,5.75,RE,1712884681
476,la roda,39.2167,-2.15,52.9,52,0,5.23,ES,1712884943
477,tarauaca,-8.1614,-70.7656,72.95,97,82,2.89,BR,1712884944
478,saba,15.4667,-86.25,79.11,86,29,2.39,HN,1712884905
479,karatuzskoye,53.6072,92.8667,35.38,92,100,10.0,RU,1712884944
480,lipnik nad becvou,49.5272,17.5859,53.58,81,60,4.36,CZ,1712884944
481,kulhudhuffushi,6.6221,73.07,85.28,74,100,7.85,MV,1712884708
482,quepos,9.4236,-84.1652,82.71,78,100,2.71,CR,1712884945
483,cova figueira,14.8905,-24.2934,62.78,74,3,6.6,CV,1712884945
484,george town,5.4112,100.3354,85.93,70,20,8.05,MY,1712884867
485,ketchikan,55.3422,-131.6461,45.34,76,75,0.0,US,1712884945
486,saint-louis,16.3333,-15.0,83.08,27,57,14.72,SN,1712884946
487,tres arroyos,-38.3739,-60.2798,48.87,69,100,8.37,AR,1712884946
488,beaugency,47.7802,1.6271,51.08,91,15,2.73,FR,1712884946
489,salalah,17.0151,54.0924,80.69,74,20,2.3,OM,1712884946
490,xilin hot,43.9667,116.0333,57.51,33,100,11.05,CN,1712884947
491,severo-yeniseyskiy,60.3725,93.0408,5.94,92,99,3.09,RU,1712884947
492,alofi,-19.0595,-169.9187,84.09,79,75,6.91,NU,1712884676
493,padang,-0.9492,100.3543,84.25,74,75,2.48,ID,1712884947
494,jalqani,12.4486,34.2186,83.19,11,10,7.83,SD,1712884947
495,robbah,33.2797,6.9098,55.04,52,100,10.04,DZ,1712884948
496,modimolle,-24.7,28.4,55.54,82,3,3.96,ZA,1712884948
497,biltine,14.5333,20.9167,82.02,10,97,11.3,TD,1712884948
498,adrar,20.5022,-10.0711,83.62,12,0,12.33,MR,1712884948
499,cole harbour,44.6724,-63.4751,39.18,83,100,5.99,CA,1712884949
500,mugia,43.1041,-9.2179,56.91,71,49,4.18,ES,1712884688
501,roxas,11.5853,122.7511,83.14,73,100,12.35,PH,1712884949
502,vurnary,55.4904,46.9648,45.39,82,53,6.64,RU,1712884949
503,nykobing falster,54.7691,11.8743,52.09,92,100,5.01,DK,1712884710
504,ghanzi,-21.5667,21.7833,63.7,41,7,8.5,BW,1712884950
505,ribeira brava,32.65,-17.0667,73.13,22,5,6.44,PT,1712884950
506,bodo,67.28,14.405,39.24,62,75,10.36,NO,1712884950
507,vetluzhskiy,58.3902,45.4654,44.04,78,100,8.01,RU,1712884950
508,boyolangu,-8.1181,111.8935,80.2,86,72,2.39,ID,1712884951
509,eydhafushi,5.1033,73.0708,84.15,75,15,5.17,MV,1712884882
510,el porvenir,13.7617,-87.3458,83.53,49,84,1.63,HN,1712884951
511,antofagasta,-23.65,-70.4,65.48,85,75,3.71,CL,1712884836
512,sorsk,54.0033,90.2467,26.38,93,100,2.64,RU,1712884952
513,palmas,-10.2128,-48.3603,78.67,94,20,4.61,BR,1712884952
514,trail,49.0998,-117.7022,53.69,66,100,3.24,CA,1712884839
515,machico,32.7,-16.7667,73.13,55,5,16.11,PT,1712884952
516,songea,-10.6833,35.65,65.17,99,100,1.68,TZ,1712884953
517,prince rupert,54.3161,-130.3201,46.49,63,0,10.36,CA,1712884953
518,llanes,43.4198,-4.7549,61.16,77,100,5.08,ES,1712884656
519,sankt valentin,48.1667,14.5167,46.85,91,1,1.92,AT,1712884953
520,filey,54.21,-0.2892,59.79,86,100,8.99,GB,1712884953
521,arkhara,49.4212,130.0842,55.76,64,100,13.0,RU,1712884954
522,aytos,42.7,27.25,51.22,72,8,4.47,BG,1712884954
523,viedma,-40.8135,-62.9967,54.3,76,99,5.68,AR,1712884830
524,bichura,50.5881,107.6022,44.28,71,100,3.53,RU,1712884954
525,yashkul',46.1711,45.3435,59.74,55,8,4.79,RU,1712884954
526,adre,13.4667,22.2,79.07,11,28,16.82,TD,1712884955
527,khalkhal,37.6189,48.5258,35.53,100,100,6.17,IR,1712884955
528,novodvinsk,64.4165,40.8122,40.78,97,91,13.24,RU,1712884955
529,kuusamo,65.9667,29.1833,32.04,80,0,10.36,FI,1712884928
530,las tablas,7.7667,-80.2833,79.18,99,83,6.17,PA,1712884956
531,fairbanks,64.8378,-147.7164,44.94,48,75,13.8,US,1712884800
532,mercedes,-34.6515,-59.4307,56.86,65,100,10.18,AR,1712884823
533,ongjin,37.9347,125.3619,56.35,80,57,7.43,KP,1712884956
534,sabratah,32.7933,12.4885,62.98,85,100,15.68,LY,1712884957
535,oroqen zizhiqi,50.5667,123.7167,49.39,62,100,3.87,CN,1712884957
536,santa ana,33.7456,-117.8678,86.36,57,20,6.91,US,1712884669
537,villeneuve-les-avignon,43.9684,4.7963,58.51,57,0,13.8,FR,1712884957
538,acapulco de juarez,16.8634,-99.8901,80.42,78,0,6.91,MX,1712884879
539,nueva gerona,21.8833,-82.8,80.44,77,100,8.86,CU,1712884958
540,gospic,44.5461,15.3747,51.49,98,100,6.06,HR,1712884958
541,bam,29.106,58.357,70.39,40,0,8.84,IR,1712884958
542,ilebo,-4.3167,20.5833,72.52,96,100,1.28,CD,1712884959
543,kerrville,30.0474,-99.1403,72.54,30,0,8.52,US,1712884943
544,chagny,46.9095,4.7519,46.45,83,100,2.64,FR,1712884959
545,bel ombre,-4.6167,55.4167,84.04,74,20,8.05,SC,1712884960
546,engenheiro beltrao,-23.7972,-52.2692,79.9,63,100,3.71,BR,1712884758
547,mjolby,58.326,15.1237,47.88,82,89,13.27,SE,1712884960
548,pimentel,-6.8367,-79.9342,77.29,69,0,16.11,PE,1712884713
549,vyshniy volochek,57.5913,34.5645,46.33,74,100,12.68,RU,1712884961
550,stepnogorsk,52.3544,71.8869,31.05,87,22,7.11,KZ,1712884961
551,howard springs,-12.497,131.047,84.11,68,100,6.93,AU,1712884961
552,leninskoye,41.7589,69.3864,56.35,66,100,10.51,KZ,1712884961
553,yatou,37.15,122.3833,62.19,56,92,10.94,CN,1712884962
554,cuamba,-14.8031,36.5372,70.07,86,100,6.51,MZ,1712884962
555,maqat,47.65,53.3167,51.3,63,79,7.36,KZ,1712884823
556,kirovskiy,45.0917,133.5136,59.74,50,1,7.07,RU,1712884962
557,itaituba,-4.2761,-55.9836,76.24,98,100,0.38,BR,1712884962
558,songling,31.1933,120.7176,60.73,98,100,5.73,CN,1712884963
559,road town,18.4167,-64.6167,80.64,74,40,20.71,VG,1712884963
560,xuddur,4.1213,43.8894,77.59,74,89,12.21,SO,1712884963
561,sao miguel,-5.4667,-35.3667,81.37,86,100,8.12,BR,1712884963
562,altai,46.3722,96.2583,36.41,54,38,17.52,MN,1712884964
563,inverloch,-38.6333,145.7167,59.27,72,100,7.02,AU,1712884964
564,kavieng,-2.5744,150.7967,83.64,73,67,6.17,PG,1712884964
565,taroudant,30.4703,-8.877,74.21,20,7,6.08,MA,1712884964
566,dedza,-14.3779,34.3332,59.5,98,100,4.34,MW,1712884965
567,tadine,-21.55,167.8833,77.79,66,100,10.4,NC,1712884965
568,east london,-33.0153,27.9116,60.58,65,87,14.54,ZA,1712884695
569,baoqing,46.3317,132.2111,63.14,49,35,12.21,CN,1712884965
570,chaihe,44.7667,129.7,60.93,51,100,13.15,CN,1712884965
571,alaghsas,17.0187,8.0168,84.33,10,100,7.02,NE,1712884966
572,velikiy ustyug,60.7644,46.3106,45.39,73,98,14.0,RU,1712884966
573,malvan,16.0667,73.4667,78.98,62,31,10.63,IN,1712884966
574,brookings,44.3114,-96.7984,49.17,56,75,18.41,US,1712884966
